[
  {
    "id": 5,
    "name": "Diaspora Nepali Church",
    "type": "교회",
    "languages": [
      "네팔"
    ],
    "address": "",
    "phone": "010-6452-1272",
    "email": "issac.pyakurel@gmail.com",
    "website": "https://www.facebook.com/share/1ADMe278KF/",
    "description": "",
    "lat": 36.9935145804268,
    "lng": 127.086040725248
  },
  {
    "id": 30,
    "name": "GFC(Global Friends Center) 국제유학생센터-부산대",
    "type": "교육기관",
    "languages": [
      "영어",
      "다문화"
    ],
    "address": "부산 금정구 금강로 279번길 78 (금강원룸 지하)",
    "phone": "010-7726-1310",
    "email": "gfc.kr.pu@gmail.com",
    "website": "",
    "description": "",
    "lat": 35.235134760119,
    "lng": 129.083960500135
  },
  {
    "id": 125,
    "name": "Global Family Church",
    "type": "교회",
    "languages": [
      "영어",
      "한국어"
    ],
    "address": "서울 서초구 서초대로73길 37 신관 사랑글로벌아카데미 3층",
    "phone": "031-698-2372",
    "email": "globalfamilychurch20@gmail.com",
    "website": "https://www.globalfamily.church",
    "description": "",
    "lat": 37.5001073334077,
    "lng": 127.02370180896
  },
  {
    "id": 121,
    "name": "Hmong Blessing Church & 축복의 집",
    "type": "센터",
    "languages": [
      "태국",
      "라오"
    ],
    "address": "경기 화성시 남양읍 남양시장로24번길 7-13 2층 202호",
    "phone": "010-2624-9669",
    "email": "ssyahe@gmail.com",
    "website": "http://pf.kakao.com/_WpFsn",
    "description": "",
    "lat": 37.2174449990608,
    "lng": 126.838510152414
  },
  {
    "id": 35,
    "name": "ISF 국제학생회",
    "type": "교육기관",
    "languages": [
      "영어",
      "다문화"
    ],
    "address": "서울 성동구 무학로2길 10길 6층",
    "phone": "02-2051-7040",
    "email": "",
    "website": "https://www.isfkorea.org",
    "description": "",
    "lat": 37.5641961672413,
    "lng": 127.031123822465
  },
  {
    "id": 2,
    "name": "SNS 나그네의이웃(GMF)",
    "type": "교회",
    "languages": [
      "다문화"
    ],
    "address": "",
    "phone": "010-4412-3950",
    "email": "campvpeter@gmail.com",
    "website": "",
    "description": "",
    "lat": 37.5403647680358,
    "lng": 126.872952996265
  },
  {
    "id": 17,
    "name": "갓플리징교회",
    "type": "교회",
    "languages": [
      "러시아"
    ],
    "address": "광주광역시 광산구 산정공원로 60번길 22",
    "phone": "010-3633-0864",
    "email": "",
    "website": "https://www.godpleasing.modoo.at",
    "description": "",
    "lat": 35.1726543605001,
    "lng": 126.807323724465
  },
  {
    "id": 97,
    "name": "거룩한빛광성교회",
    "type": "교회",
    "languages": [
      "베트남",
      "태국",
      "영어"
    ],
    "address": "경기도 고양시 일산 서구경의로 956",
    "phone": "031-918-9100",
    "email": "",
    "website": "https://www.kwangsung.org",
    "description": "",
    "lat": 37.7027309307142,
    "lng": 126.760420968025
  },
  {
    "id": 14,
    "name": "고현교회",
    "type": "교회",
    "languages": [
      "러시아",
      "중국",
      "영어"
    ],
    "address": "경남 거제시 계룡로 11길 17-7",
    "phone": "055-635-5511",
    "email": "",
    "website": "https://www.gohyun.org",
    "description": "",
    "lat": 34.8815010965051,
    "lng": 128.619227265342
  },
  {
    "id": 129,
    "name": "광탄열방교회(네팔이주민교회)",
    "type": "교회",
    "languages": [
      "네팔"
    ],
    "address": "경기도 파주시 광탄면 혜음로1091 2층",
    "phone": "010-9002-0033",
    "email": "amarina@hanmail.net",
    "website": "",
    "description": "",
    "lat": 37.7802271681005,
    "lng": 126.850308690996
  },
  {
    "id": 16,
    "name": "구미제일교회",
    "type": "교회",
    "languages": [
      "베트남",
      "몽골",
      "중국",
      "영어"
    ],
    "address": "경북 구미시 임수로 80",
    "phone": "054-471-8650",
    "email": "",
    "website": "https://www.gumijeil.org",
    "description": "",
    "lat": 36.1178976788365,
    "lng": 128.401084523095
  },
  {
    "id": 13,
    "name": "국립중앙의료원",
    "type": "의료기관",
    "languages": [],
    "address": "서울 중구 을지로 245 (동대문 역사문화 역 근처)",
    "phone": "02-2260-7114",
    "email": "",
    "website": "",
    "description": "",
    "lat": 37.5677264605676,
    "lng": 127.005484601979
  },
  {
    "id": 44,
    "name": "군산온누리엠센터",
    "type": "센터",
    "languages": [
      "캄보디아",
      "미얀마"
    ],
    "address": "전라북도 군산시 요죽안1길 57",
    "phone": "010-7437-5287",
    "email": "",
    "website": "https://www.onnurimcenter.org",
    "description": "",
    "lat": 35.9655995240981,
    "lng": 126.56257126174
  },
  {
    "id": 122,
    "name": "군포이주와다문화센터",
    "type": "센터",
    "languages": [
      "다문화"
    ],
    "address": "군포시 산본천로 188-1 2,3층",
    "phone": "070-4155-7979",
    "email": "pmf@naver.com",
    "website": "https://gunpo-migrant.campaignus.me/",
    "description": "",
    "lat": 37.3695918422987,
    "lng": 126.939076642943
  },
  {
    "id": 108,
    "name": "글로벌리더스교회(지구촌이주민센터)",
    "type": "센터",
    "languages": [
      "중국"
    ],
    "address": "경기도 수원시 영통구 동탄원천로 1109번길 37, 204호",
    "phone": "010-3439-6599",
    "email": "daeuyjang@gmail.com",
    "website": "",
    "description": "",
    "lat": 37.2695708055158,
    "lng": 127.056951879716
  },
  {
    "id": 103,
    "name": "김포온누리M센터",
    "type": "센터",
    "languages": [
      "몽골",
      "러시아",
      "캄보디아",
      "미얀마"
    ],
    "address": "경기도 김포시 양촌읍 양곡1로 65, 7층",
    "phone": "010-9178-7183",
    "email": "",
    "website": "https://www.onnurimcenter.org",
    "description": "",
    "lat": 37.6563101530508,
    "lng": 126.622882017723
  },
  {
    "id": 25,
    "name": "김해교회",
    "type": "교회",
    "languages": [
      "필리핀"
    ],
    "address": "경남 김해시 가락로 117",
    "phone": "055-333-6321",
    "email": "",
    "website": "https://www.gloria.or.kr",
    "description": "",
    "lat": 35.2375244990924,
    "lng": 128.880475517982
  },
  {
    "id": 95,
    "name": "꿈의교회",
    "type": "교회",
    "languages": [
      "영어"
    ],
    "address": "경기도 안산시 상록구 용신로 131",
    "phone": "031-409-9191",
    "email": "",
    "website": "https://www.dream10.org",
    "description": "",
    "lat": 37.3036748952755,
    "lng": 126.837145550946
  },
  {
    "id": 82,
    "name": "남서울교회",
    "type": "교회",
    "languages": [
      "영어",
      "일본"
    ],
    "address": "경기도 수원시 팔달구 매산로 108",
    "phone": "031-229-9000",
    "email": "",
    "website": "https://www.central.or.kr",
    "description": "",
    "lat": 37.5047457291261,
    "lng": 126.994969229057
  },
  {
    "id": 86,
    "name": "남양주 온누리M센터",
    "type": "센터",
    "languages": [
      "네팔",
      "캄보디아",
      "인도"
    ],
    "address": "경기도 남양주시 진접읍 광릉내로 91 3층",
    "phone": "032-527-1009",
    "email": "",
    "website": "https://www.juan.or.kr",
    "description": "",
    "lat": 37.7456489332263,
    "lng": 127.204347077501
  },
  {
    "id": 33,
    "name": "네팔노동자교회",
    "type": "교회",
    "languages": [
      "네팔"
    ],
    "address": "서울시 영등포구 대림로 126-1",
    "phone": "070-8222-8345",
    "email": "",
    "website": "",
    "description": "",
    "lat": 37.4927196341273,
    "lng": 126.9018803166
  },
  {
    "id": 63,
    "name": "높은뜻광성교회",
    "type": "교회",
    "languages": [
      "다문화"
    ],
    "address": "서울시 마포구 신수로 56 순총빌딩 5층(사무국)",
    "phone": "02-717-5025",
    "email": "",
    "website": "https://www.gwks.org",
    "description": "",
    "lat": 37.5466009761823,
    "lng": 126.934572259123
  },
  {
    "id": 65,
    "name": "다하나국제교회",
    "type": "교회",
    "languages": [
      "몽골"
    ],
    "address": "서울시 동대문구 이문동 288-39",
    "phone": "02-2269-0654",
    "email": "",
    "website": "https://www.anyangjeil.org",
    "description": "",
    "lat": 37.5959213695228,
    "lng": 127.061030404752
  },
  {
    "id": 23,
    "name": "대구동신교회",
    "type": "교회",
    "languages": [
      "베트남",
      "러시아",
      "중국",
      "영어"
    ],
    "address": "대구광역시 수성구 교학로 4길 39(만촌동)",
    "phone": "053-756-1701",
    "email": "",
    "website": "https://www.ds-ch.org",
    "description": "",
    "lat": 35.8547883446162,
    "lng": 128.650760941369
  },
  {
    "id": 93,
    "name": "매향교회",
    "type": "교회",
    "languages": [
      "태국"
    ],
    "address": "경기도 화성시 우정읍 매향웃말길 15",
    "phone": "010-8912-5466",
    "email": "",
    "website": "",
    "description": "",
    "lat": 37.0489437429754,
    "lng": 126.762999479802
  },
  {
    "id": 18,
    "name": "목포사랑의교회",
    "type": "교회",
    "languages": [
      "네팔",
      "베트남",
      "몽골",
      "중국",
      "영어"
    ],
    "address": "전남 목포시 옥암동 복산길 6번길 7",
    "phone": "061-284-8899",
    "email": "",
    "website": "https://www.mokposarang.org/",
    "description": "",
    "lat": 34.8036325283623,
    "lng": 126.437109618319
  },
  {
    "id": 43,
    "name": "목포주안교회",
    "type": "교회",
    "languages": [
      "다문화"
    ],
    "address": "전남 목포시 청호로 159(목항동)",
    "phone": "061-272-4908",
    "email": "",
    "website": "https://www.mokpojuan.com",
    "description": "",
    "lat": 34.8050773643361,
    "lng": 126.374329931065
  },
  {
    "id": 27,
    "name": "무지개다문화교회",
    "type": "교회",
    "languages": [
      "다문화"
    ],
    "address": "광주광역시 광산구 월곡중앙로 59-10 3층",
    "phone": "010-3604-8139",
    "email": "",
    "website": "",
    "description": "",
    "lat": 35.1718062507621,
    "lng": 126.810796855812
  },
  {
    "id": 112,
    "name": "미얀마선교센터",
    "type": "센터",
    "languages": [
      "미얀마"
    ],
    "address": "경기도 수원시 권선구 정조로 404",
    "phone": "010-2952-5500",
    "email": "",
    "website": "",
    "description": "",
    "lat": 37.2455191015484,
    "lng": 127.014457649296
  },
  {
    "id": 10,
    "name": "바다교회&바다이주여성쉼터",
    "type": "교회",
    "languages": [
      "네팔"
    ],
    "address": "",
    "phone": "010-5048-8296",
    "email": "",
    "website": "",
    "description": "",
    "lat": 36.9931481578613,
    "lng": 127.099579114857
  },
  {
    "id": 102,
    "name": "밝은빛교회(IMC국제선교센터)",
    "type": "센터",
    "languages": [
      "라오"
    ],
    "address": "인천광역시 남동구 앵고개로 941번길 31 4층",
    "phone": "010-4584-2724",
    "email": "",
    "website": "",
    "description": "",
    "lat": 37.4037608232747,
    "lng": 126.733990116877
  },
  {
    "id": 126,
    "name": "베이튼누르",
    "type": "교회",
    "languages": [
      "아랍"
    ],
    "address": "경기도 시흥시 서울대학로 264번길 25, 아브뉴프랑 센트럴 블루동 438호",
    "phone": "010-4479-6431",
    "email": "",
    "website": "",
    "description": "",
    "lat": 37.57856385848152,
    "lng": 126.97700738671848
  },
  {
    "id": 115,
    "name": "베트남친구들교회",
    "type": "교회",
    "languages": [
      "베트남"
    ],
    "address": "경기도 광주시 경안로 150, 2층",
    "phone": "031-8028-1717",
    "email": "",
    "website": "",
    "description": "",
    "lat": 37.4098837648528,
    "lng": 127.248629091752
  },
  {
    "id": 34,
    "name": "부천온누리교회",
    "type": "교회",
    "languages": [
      "중국"
    ],
    "address": "부천시 원미구 평천로 589 자동차백화점 506호",
    "phone": "010-5745-0121",
    "email": "",
    "website": "https://www.bc.onnuri.or.kr",
    "description": "",
    "lat": 37.515985875775,
    "lng": 126.756142012965
  },
  {
    "id": 74,
    "name": "분당매일교회 샬롬하우스",
    "type": "교회",
    "languages": [
      "스리랑카"
    ],
    "address": "경기도 용인시 처인구 모현읍 초부로 107번길 티엘산업",
    "phone": "010-5058-0895",
    "email": "",
    "website": "",
    "description": "",
    "lat": 37.3148515929754,
    "lng": 127.251822390009
  },
  {
    "id": 124,
    "name": "빛세계선교회(LWM)",
    "type": "교회",
    "languages": [
      "중국",
      "영어"
    ],
    "address": "경북 경산시 강변서로53길 20-7 2층",
    "phone": "053-746-0386",
    "email": "lwmkorea@hanmail.net",
    "website": "",
    "description": "",
    "lat": 35.8313694668425,
    "lng": 128.729781997478
  },
  {
    "id": 118,
    "name": "사랑의동포교회(외국인노동자의집)",
    "type": "교회",
    "languages": [
      "중국",
      "동포",
      "캄보디아"
    ],
    "address": "경기도 안산시 단원구 화랑로 65",
    "phone": "031-495-2288",
    "email": "5663004@hanmail.net",
    "website": "",
    "description": "",
    "lat": 37.328899591646,
    "lng": 126.797201895082
  },
  {
    "id": 22,
    "name": "상당교회(SD 미션센터)",
    "type": "센터",
    "languages": [
      "몽골",
      "러시아",
      "중국",
      "영어",
      "일본"
    ],
    "address": "충북 청주시 흥덕구 신율로 123",
    "phone": "043-288-2203",
    "email": "",
    "website": "https://www.sangdang.org",
    "description": "",
    "lat": 36.6286540775087,
    "lng": 127.446372147039
  },
  {
    "id": 6,
    "name": "새생명네팔선교교회",
    "type": "교회",
    "languages": [
      "네팔"
    ],
    "address": "",
    "phone": "031-667-1366",
    "email": "edencorea@hanmail.net",
    "website": "",
    "description": "",
    "lat": 37.0548383417973,
    "lng": 127.057496476439
  },
  {
    "id": 94,
    "name": "새생명태국인교회",
    "type": "교회",
    "languages": [
      "태국"
    ],
    "address": "경기도 안산시 단원구 선부광장남로 115 지하1층",
    "phone": "070-7019-7792",
    "email": "",
    "website": "",
    "description": "",
    "lat": 37.3292365665491,
    "lng": 126.813232301814
  },
  {
    "id": 92,
    "name": "새오름교회",
    "type": "교회",
    "languages": [
      "중국"
    ],
    "address": "서울시 마포구 연희로 1길 48 미래오피스 301호",
    "phone": "010-3512-6701",
    "email": "",
    "website": "",
    "description": "",
    "lat": 37.5609493510639,
    "lng": 126.926146694997
  },
  {
    "id": 66,
    "name": "새중앙교회",
    "type": "교회",
    "languages": [
      "베트남",
      "몽골",
      "중국",
      "동포",
      "인도네시아"
    ],
    "address": "안양시 동안구 귀인로 301",
    "phone": "031-425-3000",
    "email": "",
    "website": "https://www.sja.or.kr",
    "description": "",
    "lat": 37.3892198685379,
    "lng": 126.97193919762
  },
  {
    "id": 89,
    "name": "생수가흐르는숲교회",
    "type": "교회",
    "languages": [
      "다문화"
    ],
    "address": "서울시 동대문구 회기로52 2층 the cafe HEIMz",
    "phone": "010-8637-0333",
    "email": "",
    "website": "",
    "description": "",
    "lat": 37.5910486625459,
    "lng": 127.042197302667
  },
  {
    "id": 131,
    "name": "생수가흐르는숲국제교회",
    "type": "교회",
    "languages": [
      "다문화",
      "영어"
    ],
    "address": "",
    "phone": "",
    "email": "landmarkerministry@naver.com",
    "website": "https://www.forestlivingwater.com",
    "description": "",
    "lat": 37.6002938433956,
    "lng": 127.05732747722
  },
  {
    "id": 49,
    "name": "서산온누리M센터",
    "type": "센터",
    "languages": [
      "캄보디아"
    ],
    "address": "충남 서산시 고운로 137 (2층)",
    "phone": "010-7655-0275",
    "email": "",
    "website": "https://www.onnurimcenter.org",
    "description": "",
    "lat": 36.7826653754228,
    "lng": 126.451120461643
  },
  {
    "id": 80,
    "name": "서울네이션즈교회",
    "type": "교회",
    "languages": [
      "영어"
    ],
    "address": "서울시 용산구 한강대로 117번지 3층",
    "phone": "02-793-0193",
    "email": "",
    "website": "https://www.gfm153.com",
    "description": "",
    "lat": 37.5304394873085,
    "lng": 126.968735892617
  },
  {
    "id": 77,
    "name": "서울대 글로벌비전센터",
    "type": "센터",
    "languages": [
      "인도네시아",
      "인도"
    ],
    "address": "서울시 관악구 낙성대로 4 아놀노타워 B1",
    "phone": "010-2875-9639",
    "email": "",
    "website": "",
    "description": "",
    "lat": 37.4781601314685,
    "lng": 126.959396138739
  },
  {
    "id": 46,
    "name": "섬김의교회",
    "type": "교회",
    "languages": [
      "베트남",
      "중국",
      "영어"
    ],
    "address": "경남 거제시 옥포대첩로 106(옥포동)",
    "phone": "055-688-0691",
    "email": "",
    "website": "https://www.sumgim.org",
    "description": "",
    "lat": 34.8944466099236,
    "lng": 128.699292418603
  },
  {
    "id": 117,
    "name": "성균관대학교 국제학생교회",
    "type": "교육기관",
    "languages": [
      "영어"
    ],
    "address": "경기도 수원시 장안구 천천동 339-11",
    "phone": "010-7108-2383",
    "email": "",
    "website": "",
    "description": "",
    "lat": 37.294397256341,
    "lng": 126.978940156357
  },
  {
    "id": 38,
    "name": "송우벗사랑베트남교회",
    "type": "교회",
    "languages": [
      "베트남",
      "러시아"
    ],
    "address": "경기 포천시 소흘읍 솔모루로 92 안경박사 3층",
    "phone": "070-4416-5830",
    "email": "",
    "website": "https://www.kvim.hompee.com/",
    "description": "",
    "lat": 37.8293700923792,
    "lng": 127.147946052395
  },
  {
    "id": 53,
    "name": "수영로교회",
    "type": "교회",
    "languages": [
      "다문화"
    ],
    "address": "부산광역시 해운대구 해운대해변로 43",
    "phone": "051-740-4500",
    "email": "",
    "website": "https://www.sooyoungro.org",
    "description": "",
    "lat": 35.1646214851427,
    "lng": 129.139235997097
  },
  {
    "id": 54,
    "name": "수영로교회 비전센터",
    "type": "센터",
    "languages": [
      "네팔",
      "중국",
      "인도네시아",
      "미얀마",
      "일본"
    ],
    "address": "부산광역시 해운대구 해운대로 402",
    "phone": "051-906-4602",
    "email": "",
    "website": "https://www.sooyoungro.org",
    "description": "",
    "lat": 35.1677135277306,
    "lng": 129.139693203108
  },
  {
    "id": 55,
    "name": "수영로교회 엘레브센터",
    "type": "센터",
    "languages": [
      "베트남",
      "몽골",
      "러시아",
      "필리핀",
      "캄보디아"
    ],
    "address": "부산광역시 수영구 수영로725번길 27",
    "phone": "051-906-4602",
    "email": "",
    "website": "https://www.sooyoungro.org",
    "description": "",
    "lat": 35.1685385110572,
    "lng": 129.117358513606
  },
  {
    "id": 113,
    "name": "수원비전센터",
    "type": "센터",
    "languages": [
      "태국"
    ],
    "address": "경기도 수원시 팔달구 매산로 2-10 수원다문화푸드랜드 A동 C-50호",
    "phone": "010-2392-8713",
    "email": "",
    "website": "",
    "description": "",
    "lat": 37.2658463263793,
    "lng": 127.002501216941
  },
  {
    "id": 79,
    "name": "수원중앙침례교회",
    "type": "교회",
    "languages": [
      "네팔",
      "베트남",
      "몽골",
      "러시아",
      "중국"
    ],
    "address": "경기도 수원시 팔달구 매산로 108",
    "phone": "031-229-9000",
    "email": "",
    "website": "https://www.central.or.kr",
    "description": "",
    "lat": 37.2707625309946,
    "lng": 127.013013577632
  },
  {
    "id": 71,
    "name": "수원중화교회",
    "type": "교회",
    "languages": [
      "중국"
    ],
    "address": "경기도 수원시 팔달구 향교로 121-7",
    "phone": "010-7572-5168",
    "email": "",
    "website": "https://www.youtube.com/@user-ef7zt5kb9j",
    "description": "",
    "lat": 37.2724137293946,
    "lng": 127.013455045995
  }
]